{
  "updatedOn": "20:53",
  "dockStation":   [
        {
      "@ID": "1",
      "name": "River Street , Clerkenwell",
      "latitude": "51.52916347",
      "longitude": "-0.109970527",
      "bikesAvailable": "10",
      "emptySlots": "9",
      "installed": "true",
      "locked": "false",
      "temporary": "false"
    },
        {
      "@ID": "2",
      "name": "Phillimore Gardens, Kensington",
      "latitude": "51.49960695",
      "longitude": "-0.197574246",
      "bikesAvailable": "20",
      "emptySlots": "17",
      "installed": "true",
      "locked": "false",
      "temporary": "false"
    },
        {
      "@ID": "3",
      "name": "Christopher Street, Liverpool Street",
      "latitude": "51.52128377",
      "longitude": "-0.084605692",
      "bikesAvailable": "0",
      "emptySlots": "31",
      "installed": "true",
      "locked": "false",
      "temporary": "false"
    },
        {
      "@ID": "4",
      "name": "St. Chad's Street, King's Cross",
      "latitude": "51.53005939",
      "longitude": "-0.120973687",
      "bikesAvailable": "20",
      "emptySlots": "2",
      "installed": "true",
      "locked": "false",
      "temporary": "false"
    },
        {
      "@ID": "5",
      "name": "Sedding Street, Sloane Square",
      "latitude": "51.49313",
      "longitude": "-0.156876",
      "bikesAvailable": "25",
      "emptySlots": "2",
      "installed": "true",
      "locked": "false",
      "temporary": "false"
    },
        {
      "@ID": "6",
      "name": "Broadcasting House, Marylebone",
      "latitude": "51.51811784",
      "longitude": "-0.144228881",
      "bikesAvailable": "2",
      "emptySlots": "16",
      "installed": "true",
      "locked": "false",
      "temporary": "false"
    },
        {
      "@ID": "7",
      "name": "Charlbert Street, St. John's Wood",
      "latitude": "51.53430039",
      "longitude": "-0.1680743",
      "bikesAvailable": "13",
      "emptySlots": "1",
      "installed": "true",
      "locked": "false",
      "temporary": "false"
    },
        {
      "@ID": "8",
      "name": "Lodge Road, St. John's Wood",
      "latitude": "51.52834133",
      "longitude": "-0.170134484",
      "bikesAvailable": "7",
      "emptySlots": "11",
      "installed": "true",
      "locked": "false",
      "temporary": "false"
    },
        {
      "@ID": "9",
      "name": "New Globe Walk, Bankside",
      "latitude": "51.5073853",
      "longitude": "-0.096440751",
      "bikesAvailable": "1",
      "emptySlots": "16",
      "installed": "true",
      "locked": "false",
      "temporary": "false"
    },
        {
      "@ID": "10",
      "name": "Park Street, Bankside",
      "latitude": "51.50597426",
      "longitude": "-0.092754157",
      "bikesAvailable": "1",
      "emptySlots": "17",
      "installed": "true",
      "locked": "false",
      "temporary": "false"
    },
        {
      "@ID": "11",
      "name": "Brunswick Square, Bloomsbury",
      "latitude": "51.52395143",
      "longitude": "-0.122502346",
      "bikesAvailable": "21",
      "emptySlots": "3",
      "installed": "true",
      "locked": "false",
      "temporary": "false"
    },
        {
      "@ID": "12",
      "name": "Malet Street, Bloomsbury",
      "latitude": "51.52168078",
      "longitude": "-0.130431727",
      "bikesAvailable": "7",
      "emptySlots": "42",
      "installed": "true",
      "locked": "false",
      "temporary": "false"
    },
        {
      "@ID": "13",
      "name": "Scala Street, Fitzrovia",
      "latitude": "51.51991453",
      "longitude": "-0.136039674",
      "bikesAvailable": "0",
      "emptySlots": "21",
      "installed": "true",
      "locked": "false",
      "temporary": "false"
    },
        {
      "@ID": "14",
      "name": "Belgrove Street , King's Cross",
      "latitude": "51.52994371",
      "longitude": "-0.123616824",
      "bikesAvailable": "8",
      "emptySlots": "10",
      "installed": "true",
      "locked": "false",
      "temporary": "false"
    },
        {
      "@ID": "15",
      "name": "Great Russell Street, Bloomsbury",
      "latitude": "51.51772703",
      "longitude": "-0.127854211",
      "bikesAvailable": "0",
      "emptySlots": "26",
      "installed": "true",
      "locked": "false",
      "temporary": "false"
    },
        {
      "@ID": "17",
      "name": "Hatton Wall, Holborn",
      "latitude": "51.5216612",
      "longitude": "-0.109006325",
      "bikesAvailable": "7",
      "emptySlots": "16",
      "installed": "true",
      "locked": "false",
      "temporary": "false"
    },
        {
      "@ID": "16",
      "name": "Cartwright Gardens , Bloomsbury",
      "latitude": "51.52635795",
      "longitude": "-0.125979294",
      "bikesAvailable": "22",
      "emptySlots": "0",
      "installed": "true",
      "locked": "false",
      "temporary": "false"
    },
        {
      "@ID": "19",
      "name": "Taviton Street, Bloomsbury",
      "latitude": "51.52505093",
      "longitude": "-0.131161087",
      "bikesAvailable": "11",
      "emptySlots": "19",
      "installed": "true",
      "locked": "false",
      "temporary": "false"
    },
        {
      "@ID": "18",
      "name": "Drury Lane, Covent Garden",
      "latitude": "51.51477076",
      "longitude": "-0.12221963",
      "bikesAvailable": "1",
      "emptySlots": "25",
      "installed": "true",
      "locked": "false",
      "temporary": "false"
    },
        {
      "@ID": "21",
      "name": "Hampstead Road (Cartmel), Euston",
      "latitude": "51.53007835",
      "longitude": "-0.13884627",
      "bikesAvailable": "9",
      "emptySlots": "7",
      "installed": "true",
      "locked": "false",
      "temporary": "false"
    },
        {
      "@ID": "20",
      "name": "Drummond Street , Euston",
      "latitude": "51.52773634",
      "longitude": "-0.135273468",
      "bikesAvailable": "21",
      "emptySlots": "5",
      "installed": "true",
      "locked": "false",
      "temporary": "false"
    },
        {
      "@ID": "23",
      "name": "Red Lion Square, Holborn",
      "latitude": "51.51943538",
      "longitude": "-0.119123345",
      "bikesAvailable": "1",
      "emptySlots": "15",
      "installed": "true",
      "locked": "false",
      "temporary": "false"
    },
        {
      "@ID": "22",
      "name": "Northington Street , Holborn",
      "latitude": "51.5222641",
      "longitude": "-0.114079481",
      "bikesAvailable": "0",
      "emptySlots": "18",
      "installed": "true",
      "locked": "false",
      "temporary": "false"
    },
        {
      "@ID": "25",
      "name": "Doric Way , Somers Town",
      "latitude": "51.5288338",
      "longitude": "-0.132250369",
      "bikesAvailable": "27",
      "emptySlots": "3",
      "installed": "true",
      "locked": "false",
      "temporary": "false"
    },
        {
      "@ID": "24",
      "name": "British Museum, Bloomsbury",
      "latitude": "51.51908011",
      "longitude": "-0.124678402",
      "bikesAvailable": "1",
      "emptySlots": "31",
      "installed": "true",
      "locked": "false",
      "temporary": "false"
    },
        {
      "@ID": "27",
      "name": "Bouverie Street, Temple",
      "latitude": "51.51382102",
      "longitude": "-0.107927706",
      "bikesAvailable": "0",
      "emptySlots": "30",
      "installed": "true",
      "locked": "false",
      "temporary": "false"
    },
        {
      "@ID": "26",
      "name": "Ampton Street , Clerkenwell",
      "latitude": "51.52728093",
      "longitude": "-0.11829517",
      "bikesAvailable": "20",
      "emptySlots": "1",
      "installed": "true",
      "locked": "false",
      "temporary": "false"
    },
        {
      "@ID": "29",
      "name": "Hereford Road, Bayswater",
      "latitude": "51.513735",
      "longitude": "-0.193487",
      "bikesAvailable": "19",
      "emptySlots": "3",
      "installed": "true",
      "locked": "false",
      "temporary": "false"
    },
        {
      "@ID": "28",
      "name": "Bolsover Street, Fitzrovia",
      "latitude": "51.52351808",
      "longitude": "-0.143613641",
      "bikesAvailable": "9",
      "emptySlots": "8",
      "installed": "true",
      "locked": "false",
      "temporary": "false"
    },
        {
      "@ID": "31",
      "name": "Fanshaw Street, Hoxton",
      "latitude": "51.52953709",
      "longitude": "-0.083353323",
      "bikesAvailable": "32",
      "emptySlots": "2",
      "installed": "true",
      "locked": "false",
      "temporary": "false"
    },
        {
      "@ID": "30",
      "name": "Windsor Terrace, Hoxton",
      "latitude": "51.52915444",
      "longitude": "-0.093421615",
      "bikesAvailable": "24",
      "emptySlots": "0",
      "installed": "true",
      "locked": "false",
      "temporary": "false"
    },
        {
      "@ID": "34",
      "name": "Pancras Road, King's Cross",
      "latitude": "51.5341235",
      "longitude": "-0.129386874",
      "bikesAvailable": "13",
      "emptySlots": "3",
      "installed": "true",
      "locked": "false",
      "temporary": "false"
    },
        {
      "@ID": "32",
      "name": "Leonard Circus , Shoreditch",
      "latitude": "51.52469624",
      "longitude": "-0.084439283",
      "bikesAvailable": "0",
      "emptySlots": "43",
      "installed": "true",
      "locked": "false",
      "temporary": "false"
    },
        {
      "@ID": "33",
      "name": "Altab Ali Park, Whitechapel",
      "latitude": "51.51681603",
      "longitude": "-0.067827542",
      "bikesAvailable": "15",
      "emptySlots": "0",
      "installed": "true",
      "locked": "false",
      "temporary": "false"
    },
        {
      "@ID": "38",
      "name": "Abingdon Villas, Kensington",
      "latitude": "51.4973875",
      "longitude": "-0.197245586",
      "bikesAvailable": "11",
      "emptySlots": "5",
      "installed": "true",
      "locked": "false",
      "temporary": "false"
    },
        {
      "@ID": "39",
      "name": "Shoreditch High Street, Shoreditch",
      "latitude": "51.5263778",
      "longitude": "-0.078130921",
      "bikesAvailable": "40",
      "emptySlots": "0",
      "installed": "true",
      "locked": "false",
      "temporary": "false"
    },
        {
      "@ID": "36",
      "name": "De Vere Gardens, Kensington",
      "latitude": "51.50173726",
      "longitude": "-0.184980612",
      "bikesAvailable": "6",
      "emptySlots": "22",
      "installed": "true",
      "locked": "false",
      "temporary": "false"
    },
        {
      "@ID": "42",
      "name": "Wenlock Road , Hoxton",
      "latitude": "51.53099181",
      "longitude": "-0.093903825",
      "bikesAvailable": "27",
      "emptySlots": "0",
      "installed": "true",
      "locked": "false",
      "temporary": "false"
    },
        {
      "@ID": "43",
      "name": "Crawford Street, Marylebone",
      "latitude": "51.52026",
      "longitude": "-0.157183945",
      "bikesAvailable": "13",
      "emptySlots": "5",
      "installed": "true",
      "locked": "false",
      "temporary": "false"
    },
        {
      "@ID": "40",
      "name": "Commercial Street, Shoreditch",
      "latitude": "51.52127071",
      "longitude": "-0.0755789",
      "bikesAvailable": "12",
      "emptySlots": "4",
      "installed": "true",
      "locked": "false",
      "temporary": "false"
    },
        {
      "@ID": "41",
      "name": "Sun Street, Liverpool Street",
      "latitude": "51.52001715",
      "longitude": "-0.083911168",
      "bikesAvailable": "0",
      "emptySlots": "25",
      "installed": "true",
      "locked": "false",
      "temporary": "false"
    },
        {
      "@ID": "46",
      "name": "Nesham Street, Wapping",
      "latitude": "51.507131",
      "longitude": "-0.06691",
      "bikesAvailable": "13",
      "emptySlots": "1",
      "installed": "true",
      "locked": "false",
      "temporary": "false"
    },
        {
      "@ID": "47",
      "name": "Warwick Avenue Station, Maida Vale",
      "latitude": "51.52334476",
      "longitude": "-0.183846408",
      "bikesAvailable": "17",
      "emptySlots": "1",
      "installed": "true",
      "locked": "false",
      "temporary": "false"
    },
        {
      "@ID": "45",
      "name": "Harewood Avenue, Marylebone",
      "latitude": "51.52231968",
      "longitude": "-0.163849118",
      "bikesAvailable": "14",
      "emptySlots": "3",
      "installed": "true",
      "locked": "false",
      "temporary": "false"
    },
        {
      "@ID": "51",
      "name": "Finsbury Library , Finsbury",
      "latitude": "51.52671796",
      "longitude": "-0.104298194",
      "bikesAvailable": "9",
      "emptySlots": "20",
      "installed": "true",
      "locked": "false",
      "temporary": "false"
    },
        {
      "@ID": "50",
      "name": "East Road, Hoxton",
      "latitude": "51.52867339",
      "longitude": "-0.087459376",
      "bikesAvailable": "10",
      "emptySlots": "17",
      "installed": "true",
      "locked": "false",
      "temporary": "false"
    },
        {
      "@ID": "49",
      "name": "Curzon Street, Mayfair",
      "latitude": "51.50706909",
      "longitude": "-0.145904427",
      "bikesAvailable": "0",
      "emptySlots": "14",
      "installed": "true",
      "locked": "false",
      "temporary": "false"
    },
        {
      "@ID": "48",
      "name": "Godliman Street, St. Paul's",
      "latitude": "51.51248445",
      "longitude": "-0.099141408",
      "bikesAvailable": "13",
      "emptySlots": "11",
      "installed": "true",
      "locked": "false",
      "temporary": "false"
    },
        {
      "@ID": "55",
      "name": "Finsbury Circus, Liverpool Street",
      "latitude": "51.51707521",
      "longitude": "-0.086685542",
      "bikesAvailable": "16",
      "emptySlots": "9",
      "installed": "true",
      "locked": "false",
      "temporary": "false"
    },
        {
      "@ID": "54",
      "name": "Golden Lane, Barbican",
      "latitude": "51.52174785",
      "longitude": "-0.094475072",
      "bikesAvailable": "2",
      "emptySlots": "25",
      "installed": "true",
      "locked": "false",
      "temporary": "false"
    },
        {
      "@ID": "53",
      "name": "Grafton Street, Mayfair",
      "latitude": "51.5099923",
      "longitude": "-0.143495266",
      "bikesAvailable": "0",
      "emptySlots": "17",
      "installed": "true",
      "locked": "false",
      "temporary": "false"
    },
        {
      "@ID": "52",
      "name": "Roscoe Street, St. Luke's",
      "latitude": "51.52295439",
      "longitude": "-0.094934859",
      "bikesAvailable": "13",
      "emptySlots": "5",
      "installed": "true",
      "locked": "false",
      "temporary": "false"
    },
        {
      "@ID": "59",
      "name": "Rodney Street, Angel",
      "latitude": "51.53176825",
      "longitude": "-0.114329032",
      "bikesAvailable": "21",
      "emptySlots": "9",
      "installed": "true",
      "locked": "false",
      "temporary": "false"
    },
        {
      "@ID": "58",
      "name": "New Inn Yard, Shoreditch",
      "latitude": "51.52452699",
      "longitude": "-0.079248081",
      "bikesAvailable": "9",
      "emptySlots": "11",
      "installed": "true",
      "locked": "false",
      "temporary": "false"
    },
        {
      "@ID": "57",
      "name": "Guilford Street , Bloomsbury",
      "latitude": "51.52334672",
      "longitude": "-0.120202614",
      "bikesAvailable": "17",
      "emptySlots": "20",
      "installed": "true",
      "locked": "false",
      "temporary": "false"
    },
        {
      "@ID": "56",
      "name": "Paddington Street, Marylebone",
      "latitude": "51.52058381",
      "longitude": "-0.154701411",
      "bikesAvailable": "4",
      "emptySlots": "12",
      "installed": "true",
      "locked": "false",
      "temporary": "false"
    },
        {
      "@ID": "63",
      "name": "Murray Grove , Hoxton",
      "latitude": "51.53089041",
      "longitude": "-0.089782579",
      "bikesAvailable": "27",
      "emptySlots": "0",
      "installed": "true",
      "locked": "false",
      "temporary": "false"
    },
        {
      "@ID": "62",
      "name": "Cotton Garden Estate, Kennington",
      "latitude": "51.4907579",
      "longitude": "-0.106323685",
      "bikesAvailable": "14",
      "emptySlots": "10",
      "installed": "true",
      "locked": "false",
      "temporary": "false"
    },
        {
      "@ID": "61",
      "name": "Great Dover Street, Borough",
      "latitude": "51.49738251",
      "longitude": "-0.089446947",
      "bikesAvailable": "27",
      "emptySlots": "6",
      "installed": "true",
      "locked": "false",
      "temporary": "false"
    },
        {
      "@ID": "60",
      "name": "Lisson Grove, St. John's Wood",
      "latitude": "51.52644828",
      "longitude": "-0.172190727",
      "bikesAvailable": "11",
      "emptySlots": "7",
      "installed": "true",
      "locked": "false",
      "temporary": "false"
    },
        {
      "@ID": "68",
      "name": "Theobalds Road , Holborn",
      "latitude": "51.52059681",
      "longitude": "-0.116688468",
      "bikesAvailable": "0",
      "emptySlots": "26",
      "installed": "true",
      "locked": "false",
      "temporary": "false"
    },
        {
      "@ID": "69",
      "name": "Euston Road, Euston",
      "latitude": "51.5262363",
      "longitude": "-0.134407652",
      "bikesAvailable": "14",
      "emptySlots": "9",
      "installed": "true",
      "locked": "false",
      "temporary": "false"
    },
        {
      "@ID": "70",
      "name": "Calshot Street , King's Cross",
      "latitude": "51.53136059",
      "longitude": "-0.117069978",
      "bikesAvailable": "19",
      "emptySlots": "5",
      "installed": "true",
      "locked": "false",
      "temporary": "false"
    },
        {
      "@ID": "71",
      "name": "Newgate Street , St. Paul's",
      "latitude": "51.5154186",
      "longitude": "-0.098850915",
      "bikesAvailable": "1",
      "emptySlots": "28",
      "installed": "true",
      "locked": "false",
      "temporary": "false"
    },
        {
      "@ID": "64",
      "name": "William IV Street, Strand",
      "latitude": "51.50946212",
      "longitude": "-0.124749274",
      "bikesAvailable": "1",
      "emptySlots": "23",
      "installed": "true",
      "locked": "false",
      "temporary": "false"
    },
        {
      "@ID": "65",
      "name": "Gower Place , Euston",
      "latitude": "51.52522753",
      "longitude": "-0.13518856",
      "bikesAvailable": "9",
      "emptySlots": "6",
      "installed": "true",
      "locked": "false",
      "temporary": "false"
    },
        {
      "@ID": "66",
      "name": "Holborn Circus, Holborn",
      "latitude": "51.51795029",
      "longitude": "-0.108657431",
      "bikesAvailable": "9",
      "emptySlots": "29",
      "installed": "true",
      "locked": "false",
      "temporary": "false"
    },
        {
      "@ID": "67",
      "name": "Hatton Garden, Holborn",
      "latitude": "51.51882555",
      "longitude": "-0.108028472",
      "bikesAvailable": "15",
      "emptySlots": "12",
      "installed": "true",
      "locked": "false",
      "temporary": "false"
    },
        {
      "@ID": "76",
      "name": "Longford Street, Regent's Park",
      "latitude": "51.52559505",
      "longitude": "-0.144083893",
      "bikesAvailable": "12",
      "emptySlots": "9",
      "installed": "true",
      "locked": "false",
      "temporary": "false"
    },
        {
      "@ID": "77",
      "name": "Russell Square Station, Bloomsbury",
      "latitude": "51.52341837",
      "longitude": "-0.124121774",
      "bikesAvailable": "15",
      "emptySlots": "11",
      "installed": "true",
      "locked": "false",
      "temporary": "false"
    },
        {
      "@ID": "78",
      "name": "Sadlers Sports Centre, Finsbury",
      "latitude": "51.52486887",
      "longitude": "-0.099489485",
      "bikesAvailable": "2",
      "emptySlots": "15",
      "installed": "true",
      "locked": "false",
      "temporary": "false"
    },
        {
      "@ID": "72",
      "name": "Farringdon Lane, Clerkenwell",
      "latitude": "51.52352001",
      "longitude": "-0.108340165",
      "bikesAvailable": "2",
      "emptySlots": "12",
      "installed": "true",
      "locked": "false",
      "temporary": "false"
    },
        {
      "@ID": "73",
      "name": "Old Street Station, St. Luke's",
      "latitude": "51.52572618",
      "longitude": "-0.088486188",
      "bikesAvailable": "22",
      "emptySlots": "10",
      "installed": "true",
      "locked": "false",
      "temporary": "false"
    },
        {
      "@ID": "74",
      "name": "Vauxhall Cross, Vauxhall",
      "latitude": "51.48591714",
      "longitude": "-0.124469948",
      "bikesAvailable": "16",
      "emptySlots": "0",
      "installed": "true",
      "locked": "false",
      "temporary": "false"
    },
        {
      "@ID": "75",
      "name": "Torrens Street, Angel",
      "latitude": "51.53219984",
      "longitude": "-0.105480698",
      "bikesAvailable": "4",
      "emptySlots": "15",
      "installed": "true",
      "locked": "false",
      "temporary": "false"
    },
        {
      "@ID": "85",
      "name": "Tanner Street, Bermondsey",
      "latitude": "51.50064702",
      "longitude": "-0.078600401",
      "bikesAvailable": "18",
      "emptySlots": "1",
      "installed": "true",
      "locked": "false",
      "temporary": "false"
    },
        {
      "@ID": "84",
      "name": "Breams Buildings, Holborn",
      "latitude": "51.51593725",
      "longitude": "-0.111778348",
      "bikesAvailable": "0",
      "emptySlots": "24",
      "installed": "true",
      "locked": "false",
      "temporary": "false"
    },
        {
      "@ID": "87",
      "name": "Devonshire Square, Liverpool Street",
      "latitude": "51.51646835",
      "longitude": "-0.079684557",
      "bikesAvailable": "9",
      "emptySlots": "7",
      "installed": "true",
      "locked": "false",
      "temporary": "false"
    },
        {
      "@ID": "86",
      "name": "Sancroft Street, Vauxhall",
      "latitude": "51.48947903",
      "longitude": "-0.115156562",
      "bikesAvailable": "24",
      "emptySlots": "0",
      "installed": "true",
      "locked": "false",
      "temporary": "false"
    },
        {
      "@ID": "81",
      "name": "Great Titchfield Street, Fitzrovia",
      "latitude": "51.52025302",
      "longitude": "-0.141327271",
      "bikesAvailable": "6",
      "emptySlots": "13",
      "installed": "true",
      "locked": "false",
      "temporary": "false"
    },
        {
      "@ID": "80",
      "name": "Webber Street , Southwark",
      "latitude": "51.50069361",
      "longitude": "-0.102091246",
      "bikesAvailable": "7",
      "emptySlots": "17",
      "installed": "true",
      "locked": "false",
      "temporary": "false"
    },
        {
      "@ID": "83",
      "name": "Panton Street, West End",
      "latitude": "51.50963938",
      "longitude": "-0.131510949",
      "bikesAvailable": "13",
      "emptySlots": "8",
      "installed": "true",
      "locked": "false",
      "temporary": "false"
    },
        {
      "@ID": "82",
      "name": "Chancery Lane, Holborn",
      "latitude": "51.514274",
      "longitude": "-0.111257",
      "bikesAvailable": "0",
      "emptySlots": "14",
      "installed": "true",
      "locked": "false",
      "temporary": "false"
    },
        {
      "@ID": "93",
      "name": "Cloudesley Road, Angel",
      "latitude": "51.53440868",
      "longitude": "-0.109025404",
      "bikesAvailable": "20",
      "emptySlots": "16",
      "installed": "true",
      "locked": "false",
      "temporary": "false"
    },
        {
      "@ID": "92",
      "name": "Borough Road, Elephant & Castle",
      "latitude": "51.49889832",
      "longitude": "-0.100440521",
      "bikesAvailable": "34",
      "emptySlots": "7",
      "installed": "true",
      "locked": "false",
      "temporary": "false"
    },
        {
      "@ID": "95",
      "name": "Aldersgate Street, Barbican",
      "latitude": "51.5208417",
      "longitude": "-0.097340162",
      "bikesAvailable": "0",
      "emptySlots": "14",
      "installed": "true",
      "locked": "false",
      "temporary": "false"
    },
        {
      "@ID": "94",
      "name": "Bricklayers Arms, Borough",
      "latitude": "51.49506109",
      "longitude": "-0.085814489",
      "bikesAvailable": "22",
      "emptySlots": "5",
      "installed": "true",
      "locked": "false",
      "temporary": "false"
    },
        {
      "@ID": "89",
      "name": "Tavistock Place, Bloomsbury",
      "latitude": "51.5262503",
      "longitude": "-0.123509611",
      "bikesAvailable": "16",
      "emptySlots": "3",
      "installed": "true",
      "locked": "false",
      "temporary": "false"
    },
        {
      "@ID": "88",
      "name": "Bayley Street , Bloomsbury",
      "latitude": "51.51858757",
      "longitude": "-0.132053392",
      "bikesAvailable": "1",
      "emptySlots": "24",
      "installed": "true",
      "locked": "false",
      "temporary": "false"
    },
        {
      "@ID": "91",
      "name": "Walnut Tree Walk, Vauxhall",
      "latitude": "51.49368637",
      "longitude": "-0.111014912",
      "bikesAvailable": "19",
      "emptySlots": "1",
      "installed": "true",
      "locked": "false",
      "temporary": "false"
    },
        {
      "@ID": "90",
      "name": "Harrington Square, Camden Town",
      "latitude": "51.53301907",
      "longitude": "-0.139174593",
      "bikesAvailable": "6",
      "emptySlots": "19",
      "installed": "true",
      "locked": "false",
      "temporary": "false"
    },
        {
      "@ID": "102",
      "name": "Jewry Street, Aldgate",
      "latitude": "51.51340693",
      "longitude": "-0.076793375",
      "bikesAvailable": "3",
      "emptySlots": "12",
      "installed": "true",
      "locked": "false",
      "temporary": "false"
    },
        {
      "@ID": "103",
      "name": "Vicarage Gate, Kensington",
      "latitude": "51.50472376",
      "longitude": "-0.192538767",
      "bikesAvailable": "6",
      "emptySlots": "12",
      "installed": "true",
      "locked": "false",
      "temporary": "false"
    },
        {
      "@ID": "100",
      "name": "Albert Embankment, Vauxhall",
      "latitude": "51.49043573",
      "longitude": "-0.122806861",
      "bikesAvailable": "19",
      "emptySlots": "5",
      "installed": "true",
      "locked": "false",
      "temporary": "false"
    },
        {
      "@ID": "101",
      "name": "Queen Street, Bank",
      "latitude": "51.51155322",
      "longitude": "-0.0929401",
      "bikesAvailable": "2",
      "emptySlots": "18",
      "installed": "true",
      "locked": "false",
      "temporary": "false"
    },
        {
      "@ID": "98",
      "name": "Hampstead Road, Euston",
      "latitude": "51.52554222",
      "longitude": "-0.138231303",
      "bikesAvailable": "23",
      "emptySlots": "29",
      "installed": "true",
      "locked": "false",
      "temporary": "false"
    },
        {
      "@ID": "99",
      "name": "Old Quebec Street, Marylebone",
      "latitude": "51.51457763",
      "longitude": "-0.158264483",
      "bikesAvailable": "1",
      "emptySlots": "15",
      "installed": "true",
      "locked": "false",
      "temporary": "false"
    },
        {
      "@ID": "96",
      "name": "Falkirk Street, Hoxton",
      "latitude": "51.53095071",
      "longitude": "-0.078505384",
      "bikesAvailable": "17",
      "emptySlots": "6",
      "installed": "true",
      "locked": "false",
      "temporary": "false"
    },
        {
      "@ID": "97",
      "name": "Gloucester Road (North), Kensington",
      "latitude": "51.49792478",
      "longitude": "-0.183834706",
      "bikesAvailable": "2",
      "emptySlots": "16",
      "installed": "true",
      "locked": "false",
      "temporary": "false"
    },
        {
      "@ID": "110",
      "name": "Wellington Road, St. John's Wood",
      "latitude": "51.53304322",
      "longitude": "-0.172528678",
      "bikesAvailable": "12",
      "emptySlots": "4",
      "installed": "true",
      "locked": "false",
      "temporary": "false"
    },
        {
      "@ID": "111",
      "name": "Park Lane , Hyde Park",
      "latitude": "51.5100172",
      "longitude": "-0.157275636",
      "bikesAvailable": "10",
      "emptySlots": "18",
      "installed": "true",
      "locked": "false",
      "temporary": "false"
    },
        {
      "@ID": "108",
      "name": "Abbey Orchard Street, Westminster",
      "latitude": "51.49812559",
      "longitude": "-0.132102166",
      "bikesAvailable": "4",
      "emptySlots": "25",
      "installed": "true",
      "locked": "false",
      "temporary": "false"
    },
        {
      "@ID": "109",
      "name": "Soho Square , Soho",
      "latitude": "51.51563144",
      "longitude": "-0.132328837",
      "bikesAvailable": "4",
      "emptySlots": "28",
      "installed": "true",
      "locked": "false",
      "temporary": "false"
    },
        {
      "@ID": "106",
      "name": "Woodstock Street, Mayfair",
      "latitude": "51.51410514",
      "longitude": "-0.147301667",
      "bikesAvailable": "4",
      "emptySlots": "17",
      "installed": "true",
      "locked": "false",
      "temporary": "false"
    },
        {
      "@ID": "107",
      "name": "Finsbury Leisure Centre, St. Luke's",
      "latitude": "51.52600832",
      "longitude": "-0.096317627",
      "bikesAvailable": "16",
      "emptySlots": "0",
      "installed": "true",
      "locked": "false",
      "temporary": "false"
    },
        {
      "@ID": "104",
      "name": "Crosswall, Tower",
      "latitude": "51.51159481",
      "longitude": "-0.077121322",
      "bikesAvailable": "22",
      "emptySlots": "12",
      "installed": "true",
      "locked": "false",
      "temporary": "false"
    },
        {
      "@ID": "105",
      "name": "Westbourne Grove, Bayswater",
      "latitude": "51.51552971",
      "longitude": "-0.190240716",
      "bikesAvailable": "20",
      "emptySlots": "5",
      "installed": "true",
      "locked": "false",
      "temporary": "false"
    },
        {
      "@ID": "119",
      "name": "Bath Street, St. Luke's",
      "latitude": "51.52589324",
      "longitude": "-0.090847761",
      "bikesAvailable": "2",
      "emptySlots": "16",
      "installed": "true",
      "locked": "false",
      "temporary": "false"
    },
        {
      "@ID": "118",
      "name": "Rochester Row, Westminster",
      "latitude": "51.49582705",
      "longitude": "-0.13547809",
      "bikesAvailable": "8",
      "emptySlots": "5",
      "installed": "true",
      "locked": "false",
      "temporary": "false"
    },
        {
      "@ID": "117",
      "name": "Lollard Street, Vauxhall",
      "latitude": "51.49288067",
      "longitude": "-0.114934001",
      "bikesAvailable": "22",
      "emptySlots": "3",
      "installed": "true",
      "locked": "false",
      "temporary": "false"
    },
        {
      "@ID": "116",
      "name": "Little Argyll Street, West End",
      "latitude": "51.51449962",
      "longitude": "-0.141423695",
      "bikesAvailable": "0",
      "emptySlots": "21",
      "installed": "true",
      "locked": "false",
      "temporary": "false"
    },
        {
      "@ID": "115",
      "name": "Braham Street, Aldgate",
      "latitude": "51.51423368",
      "longitude": "-0.073537654",
      "bikesAvailable": "9",
      "emptySlots": "23",
      "installed": "true",
      "locked": "false",
      "temporary": "false"
    },
        {
      "@ID": "114",
      "name": "\n      Park Road (Baker Street), Regent's Park\n    ",
      "latitude": "51.52451738",
      "longitude": "-0.158963647",
      "bikesAvailable": "14",
      "emptySlots": "5",
      "installed": "true",
      "locked": "false",
      "temporary": "false"
    },
        {
      "@ID": "113",
      "name": "\n      Gloucester Road (Central), South Kensington\n    ",
      "latitude": "51.49646288",
      "longitude": "-0.183289032",
      "bikesAvailable": "11",
      "emptySlots": "7",
      "installed": "true",
      "locked": "false",
      "temporary": "false"
    },
        {
      "@ID": "112",
      "name": "Stonecutter Street, Holborn",
      "latitude": "51.51580998",
      "longitude": "-0.105270275",
      "bikesAvailable": "0",
      "emptySlots": "45",
      "installed": "true",
      "locked": "false",
      "temporary": "false"
    },
        {
      "@ID": "127",
      "name": "Wood Street, Guildhall",
      "latitude": "51.51700801",
      "longitude": "-0.09388536",
      "bikesAvailable": "0",
      "emptySlots": "16",
      "installed": "true",
      "locked": "false",
      "temporary": "false"
    },
        {
      "@ID": "126",
      "name": "Museum of London, Barbican",
      "latitude": "51.51782144",
      "longitude": "-0.096496865",
      "bikesAvailable": "0",
      "emptySlots": "48",
      "installed": "true",
      "locked": "false",
      "temporary": "false"
    },
        {
      "@ID": "125",
      "name": "Borough High Street, The Borough",
      "latitude": "51.50069491",
      "longitude": "-0.094524319",
      "bikesAvailable": "18",
      "emptySlots": "2",
      "installed": "true",
      "locked": "false",
      "temporary": "false"
    },
        {
      "@ID": "124",
      "name": "Eaton Square, Belgravia",
      "latitude": "51.49654462",
      "longitude": "-0.150905245",
      "bikesAvailable": "9",
      "emptySlots": "11",
      "installed": "true",
      "locked": "false",
      "temporary": "false"
    },
        {
      "@ID": "123",
      "name": "St. John Street, Finsbury",
      "latitude": "51.52836014",
      "longitude": "-0.104724625",
      "bikesAvailable": "9",
      "emptySlots": "9",
      "installed": "true",
      "locked": "false",
      "temporary": "false"
    },
        {
      "@ID": "122",
      "name": "Norton Folgate, Liverpool Street",
      "latitude": "51.52111369",
      "longitude": "-0.078869751",
      "bikesAvailable": "1",
      "emptySlots": "22",
      "installed": "true",
      "locked": "false",
      "temporary": "false"
    },
        {
      "@ID": "121",
      "name": "Baker Street, Marylebone",
      "latitude": "51.51891348",
      "longitude": "-0.156166631",
      "bikesAvailable": "1",
      "emptySlots": "20",
      "installed": "true",
      "locked": "false",
      "temporary": "false"
    },
        {
      "@ID": "120",
      "name": "The Guildhall, Guildhall",
      "latitude": "51.51573534",
      "longitude": "-0.093080779",
      "bikesAvailable": "13",
      "emptySlots": "4",
      "installed": "true",
      "locked": "false",
      "temporary": "false"
    },
        {
      "@ID": "137",
      "name": "Bourne Street, Belgravia",
      "latitude": "51.49087475",
      "longitude": "-0.153319609",
      "bikesAvailable": "11",
      "emptySlots": "5",
      "installed": "true",
      "locked": "false",
      "temporary": "false"
    },
        {
      "@ID": "136",
      "name": "Queen Victoria Street, St. Paul's",
      "latitude": "51.51196176",
      "longitude": "-0.097441687",
      "bikesAvailable": "6",
      "emptySlots": "25",
      "installed": "true",
      "locked": "false",
      "temporary": "false"
    },
        {
      "@ID": "139",
      "name": "Lambeth Road, Vauxhall",
      "latitude": "51.49488108",
      "longitude": "-0.117974901",
      "bikesAvailable": "9",
      "emptySlots": "9",
      "installed": "true",
      "locked": "false",
      "temporary": "false"
    },
        {
      "@ID": "138",
      "name": "Green Street, Mayfair",
      "latitude": "51.51227622",
      "longitude": "-0.157436972",
      "bikesAvailable": "2",
      "emptySlots": "17",
      "installed": "true",
      "locked": "false",
      "temporary": "false"
    },
        {
      "@ID": "141",
      "name": "Chapel Place, Marylebone",
      "latitude": "51.51530805",
      "longitude": "-0.147203711",
      "bikesAvailable": "0",
      "emptySlots": "27",
      "installed": "true",
      "locked": "false",
      "temporary": "false"
    },
        {
      "@ID": "140",
      "name": "Finsbury Square , Moorgate",
      "latitude": "51.52096262",
      "longitude": "-0.085634242",
      "bikesAvailable": "1",
      "emptySlots": "31",
      "installed": "true",
      "locked": "false",
      "temporary": "false"
    },
        {
      "@ID": "143",
      "name": "Pont Street, Knightsbridge",
      "latitude": "51.4968865",
      "longitude": "-0.161203828",
      "bikesAvailable": "15",
      "emptySlots": "9",
      "installed": "true",
      "locked": "false",
      "temporary": "false"
    },
        {
      "@ID": "142",
      "name": "West Cromwell Road, Earl's Court",
      "latitude": "51.49372451",
      "longitude": "-0.198286569",
      "bikesAvailable": "17",
      "emptySlots": "7",
      "installed": "true",
      "locked": "false",
      "temporary": "false"
    },
        {
      "@ID": "129",
      "name": "Golden Square, Soho",
      "latitude": "51.5118973",
      "longitude": "-0.137043852",
      "bikesAvailable": "1",
      "emptySlots": "17",
      "installed": "true",
      "locked": "false",
      "temporary": "false"
    },
        {
      "@ID": "128",
      "name": "Emperor's Gate, South Kensington",
      "latitude": "51.49536226",
      "longitude": "-0.185296516",
      "bikesAvailable": "16",
      "emptySlots": "6",
      "installed": "true",
      "locked": "false",
      "temporary": "false"
    },
        {
      "@ID": "131",
      "name": "Eversholt Street , Camden Town",
      "latitude": "51.53300545",
      "longitude": "-0.136792671",
      "bikesAvailable": "13",
      "emptySlots": "2",
      "installed": "true",
      "locked": "false",
      "temporary": "false"
    },
        {
      "@ID": "130",
      "name": "Tower Gardens , Tower",
      "latitude": "51.50950627",
      "longitude": "-0.075459482",
      "bikesAvailable": "2",
      "emptySlots": "21",
      "installed": "true",
      "locked": "false",
      "temporary": "false"
    },
        {
      "@ID": "133",
      "name": "Derry Street, Kensington",
      "latitude": "51.50136494",
      "longitude": "-0.191462381",
      "bikesAvailable": "0",
      "emptySlots": "16",
      "installed": "true",
      "locked": "false",
      "temporary": "false"
    },
        {
      "@ID": "132",
      "name": "Bethnal Green Road, Shoreditch",
      "latitude": "51.52364804",
      "longitude": "-0.074754872",
      "bikesAvailable": "29",
      "emptySlots": "9",
      "installed": "true",
      "locked": "false",
      "temporary": "false"
    },
        {
      "@ID": "135",
      "name": "Clerkenwell Green, Clerkenwell",
      "latitude": "51.52326004",
      "longitude": "-0.104708922",
      "bikesAvailable": "0",
      "emptySlots": "19",
      "installed": "true",
      "locked": "false",
      "temporary": "false"
    },
        {
      "@ID": "134",
      "name": "Wapping High Street, Wapping",
      "latitude": "51.504904",
      "longitude": "-0.06797",
      "bikesAvailable": "16",
      "emptySlots": "4",
      "installed": "true",
      "locked": "false",
      "temporary": "false"
    },
        {
      "@ID": "152",
      "name": "Hampton Street, Walworth",
      "latitude": "51.49217002",
      "longitude": "-0.101536865",
      "bikesAvailable": "19",
      "emptySlots": "1",
      "installed": "true",
      "locked": "false",
      "temporary": "false"
    },
        {
      "@ID": "153",
      "name": "Bayswater Road, Hyde Park",
      "latitude": "51.51183419",
      "longitude": "-0.174292825",
      "bikesAvailable": "25",
      "emptySlots": "0",
      "installed": "true",
      "locked": "false",
      "temporary": "false"
    },
        {
      "@ID": "154",
      "name": "Waterloo Station 3, Waterloo",
      "latitude": "51.50379168",
      "longitude": "-0.11282408",
      "bikesAvailable": "30",
      "emptySlots": "3",
      "installed": "true",
      "locked": "false",
      "temporary": "false"
    },
        {
      "@ID": "155",
      "name": "Lexham Gardens, Kensington",
      "latitude": "51.49586666",
      "longitude": "-0.191933711",
      "bikesAvailable": "8",
      "emptySlots": "11",
      "installed": "true",
      "locked": "false",
      "temporary": "false"
    },
        {
      "@ID": "156",
      "name": "New Kent Road, Borough",
      "latitude": "51.49443626",
      "longitude": "-0.092921165",
      "bikesAvailable": "16",
      "emptySlots": "16",
      "installed": "true",
      "locked": "false",
      "temporary": "false"
    },
        {
      "@ID": "157",
      "name": "Wright's Lane, Kensington",
      "latitude": "51.50039792",
      "longitude": "-0.193068385",
      "bikesAvailable": "4",
      "emptySlots": "31",
      "installed": "true",
      "locked": "false",
      "temporary": "false"
    },
        {
      "@ID": "158",
      "name": "Trebovir Road, Earl's Court",
      "latitude": "51.49085368",
      "longitude": "-0.196170309",
      "bikesAvailable": "5",
      "emptySlots": "13",
      "installed": "true",
      "locked": "false",
      "temporary": "false"
    },
        {
      "@ID": "159",
      "name": "Great Marlborough Street, Soho",
      "latitude": "51.51461995",
      "longitude": "-0.137841333",
      "bikesAvailable": "0",
      "emptySlots": "35",
      "installed": "true",
      "locked": "false",
      "temporary": "false"
    },
        {
      "@ID": "144",
      "name": "Kennington Cross, Kennington",
      "latitude": "51.48894022",
      "longitude": "-0.111435796",
      "bikesAvailable": "40",
      "emptySlots": "6",
      "installed": "true",
      "locked": "false",
      "temporary": "false"
    },
        {
      "@ID": "145",
      "name": "Ilchester Place, Kensington",
      "latitude": "51.50074359",
      "longitude": "-0.202759212",
      "bikesAvailable": "0",
      "emptySlots": "24",
      "installed": "true",
      "locked": "false",
      "temporary": "false"
    },
        {
      "@ID": "146",
      "name": "Vauxhall Bridge , Pimlico",
      "latitude": "51.48836528",
      "longitude": "-0.129361842",
      "bikesAvailable": "25",
      "emptySlots": "10",
      "installed": "true",
      "locked": "false",
      "temporary": "false"
    },
        {
      "@ID": "147",
      "name": "Portugal Street, Holborn",
      "latitude": "51.51494305",
      "longitude": "-0.11614642",
      "bikesAvailable": "0",
      "emptySlots": "16",
      "installed": "true",
      "locked": "false",
      "temporary": "false"
    },
        {
      "@ID": "148",
      "name": "Tachbrook Street, Victoria",
      "latitude": "51.49211134",
      "longitude": "-0.138364847",
      "bikesAvailable": "14",
      "emptySlots": "2",
      "installed": "true",
      "locked": "false",
      "temporary": "false"
    },
        {
      "@ID": "149",
      "name": "Kennington Road Post Office, Oval",
      "latitude": "51.48478899",
      "longitude": "-0.110683213",
      "bikesAvailable": "11",
      "emptySlots": "7",
      "installed": "true",
      "locked": "false",
      "temporary": "false"
    },
        {
      "@ID": "150",
      "name": "Holy Trinity Brompton, Knightsbridge",
      "latitude": "51.49705603",
      "longitude": "-0.168917077",
      "bikesAvailable": "6",
      "emptySlots": "22",
      "installed": "true",
      "locked": "false",
      "temporary": "false"
    },
        {
      "@ID": "151",
      "name": "Chepstow Villas, Notting Hill",
      "latitude": "51.51213691",
      "longitude": "-0.201554966",
      "bikesAvailable": "4",
      "emptySlots": "22",
      "installed": "true",
      "locked": "false",
      "temporary": "false"
    },
        {
      "@ID": "171",
      "name": "Collingham Gardens, Earl's Court",
      "latitude": "51.4916156",
      "longitude": "-0.186753859",
      "bikesAvailable": "14",
      "emptySlots": "0",
      "installed": "true",
      "locked": "false",
      "temporary": "false"
    },
        {
      "@ID": "170",
      "name": "Hardwick Street, Clerkenwell",
      "latitude": "51.52784273",
      "longitude": "-0.108068155",
      "bikesAvailable": "15",
      "emptySlots": "14",
      "installed": "true",
      "locked": "false",
      "temporary": "false"
    },
        {
      "@ID": "169",
      "name": "Porchester Place, Paddington",
      "latitude": "51.51474612",
      "longitude": "-0.165164288",
      "bikesAvailable": "18",
      "emptySlots": "0",
      "installed": "true",
      "locked": "false",
      "temporary": "false"
    },
        {
      "@ID": "168",
      "name": "Argyll Road, Kensington",
      "latitude": "51.50040123",
      "longitude": "-0.195455928",
      "bikesAvailable": "6",
      "emptySlots": "13",
      "installed": "true",
      "locked": "false",
      "temporary": "false"
    },
        {
      "@ID": "175",
      "name": "Appold Street, Liverpool Street",
      "latitude": "51.52174384",
      "longitude": "-0.0811189",
      "bikesAvailable": "4",
      "emptySlots": "21",
      "installed": "true",
      "locked": "false",
      "temporary": "false"
    },
        {
      "@ID": "174",
      "name": "Strand, Strand",
      "latitude": "51.512529",
      "longitude": "-0.115163",
      "bikesAvailable": "7",
      "emptySlots": "26",
      "installed": "true",
      "locked": "false",
      "temporary": "false"
    },
        {
      "@ID": "173",
      "name": "Waterloo Roundabout, Waterloo ",
      "latitude": "51.50486",
      "longitude": "-0.113001",
      "bikesAvailable": "9",
      "emptySlots": "6",
      "installed": "true",
      "locked": "false",
      "temporary": "false"
    },
        {
      "@ID": "172",
      "name": "Sumner Place, South Kensington",
      "latitude": "51.49121192",
      "longitude": "-0.173715911",
      "bikesAvailable": "2",
      "emptySlots": "16",
      "installed": "true",
      "locked": "false",
      "temporary": "false"
    },
        {
      "@ID": "163",
      "name": "Sloane Avenue, Knightsbridge",
      "latitude": "51.4931848",
      "longitude": "-0.167894973",
      "bikesAvailable": "5",
      "emptySlots": "25",
      "installed": "true",
      "locked": "false",
      "temporary": "false"
    },
        {
      "@ID": "162",
      "name": "Southampton Place, Holborn",
      "latitude": "51.51760685",
      "longitude": "-0.121328408",
      "bikesAvailable": "1",
      "emptySlots": "18",
      "installed": "true",
      "locked": "false",
      "temporary": "false"
    },
        {
      "@ID": "161",
      "name": "Guildhouse Street, Victoria",
      "latitude": "51.49234577",
      "longitude": "-0.141334487",
      "bikesAvailable": "8",
      "emptySlots": "7",
      "installed": "true",
      "locked": "false",
      "temporary": "false"
    },
        {
      "@ID": "160",
      "name": "Waterloo Place, St. James's",
      "latitude": "51.50663341",
      "longitude": "-0.131773845",
      "bikesAvailable": "12",
      "emptySlots": "7",
      "installed": "true",
      "locked": "false",
      "temporary": "false"
    },
        {
      "@ID": "167",
      "name": "Eccleston Place, Victoria",
      "latitude": "51.49395092",
      "longitude": "-0.147624377",
      "bikesAvailable": "5",
      "emptySlots": "14",
      "installed": "true",
      "locked": "false",
      "temporary": "false"
    },
        {
      "@ID": "166",
      "name": "Seville Street, Knightsbridge",
      "latitude": "51.50185512",
      "longitude": "-0.159237081",
      "bikesAvailable": "10",
      "emptySlots": "16",
      "installed": "true",
      "locked": "false",
      "temporary": "false"
    },
        {
      "@ID": "165",
      "name": "Orsett Terrace, Bayswater",
      "latitude": "51.517932",
      "longitude": "-0.183716959",
      "bikesAvailable": "6",
      "emptySlots": "9",
      "installed": "true",
      "locked": "false",
      "temporary": "false"
    },
        {
      "@ID": "164",
      "name": "Cleveland Gardens, Bayswater",
      "latitude": "51.515607",
      "longitude": "-0.183118788",
      "bikesAvailable": "11",
      "emptySlots": "4",
      "installed": "true",
      "locked": "false",
      "temporary": "false"
    },
        {
      "@ID": "186",
      "name": "South Wharf Road, Paddington",
      "latitude": "51.51733558",
      "longitude": "-0.175810943",
      "bikesAvailable": "14",
      "emptySlots": "2",
      "installed": "true",
      "locked": "false",
      "temporary": "false"
    },
        {
      "@ID": "187",
      "name": "\n      Queen's Gate (South), South Kensington\n    ",
      "latitude": "51.49247977",
      "longitude": "-0.178433004",
      "bikesAvailable": "11",
      "emptySlots": "14",
      "installed": "true",
      "locked": "false",
      "temporary": "false"
    },
        {
      "@ID": "184",
      "name": "Portland Place, Marylebone",
      "latitude": "51.52071513",
      "longitude": "-0.14521173",
      "bikesAvailable": "12",
      "emptySlots": "22",
      "installed": "true",
      "locked": "false",
      "temporary": "false"
    },
        {
      "@ID": "185",
      "name": "Alderney Street, Pimlico",
      "latitude": "51.48805753",
      "longitude": "-0.140741432",
      "bikesAvailable": "13",
      "emptySlots": "1",
      "installed": "true",
      "locked": "false",
      "temporary": "false"
    },
        {
      "@ID": "190",
      "name": "Rampayne Street, Pimlico",
      "latitude": "51.48997562",
      "longitude": "-0.132845681",
      "bikesAvailable": "14",
      "emptySlots": "6",
      "installed": "true",
      "locked": "false",
      "temporary": "false"
    },
        {
      "@ID": "191",
      "name": "Hyde Park Corner, Hyde Park",
      "latitude": "51.50311799",
      "longitude": "-0.153520935",
      "bikesAvailable": "3",
      "emptySlots": "21",
      "installed": "true",
      "locked": "false",
      "temporary": "false"
    },
        {
      "@ID": "188",
      "name": "Nutford Place, Marylebone",
      "latitude": "51.5165179",
      "longitude": "-0.164393768",
      "bikesAvailable": "17",
      "emptySlots": "1",
      "installed": "true",
      "locked": "false",
      "temporary": "false"
    },
        {
      "@ID": "189",
      "name": "Claremont Square, Angel",
      "latitude": "51.53166681",
      "longitude": "-0.109914711",
      "bikesAvailable": "10",
      "emptySlots": "8",
      "installed": "true",
      "locked": "false",
      "temporary": "false"
    },
        {
      "@ID": "178",
      "name": "Warwick Square, Pimlico",
      "latitude": "51.48985626",
      "longitude": "-0.141923621",
      "bikesAvailable": "16",
      "emptySlots": "3",
      "installed": "true",
      "locked": "false",
      "temporary": "false"
    },
        {
      "@ID": "176",
      "name": "Gloucester Terrace, Bayswater",
      "latitude": "51.51791921",
      "longitude": "-0.188098863",
      "bikesAvailable": "13",
      "emptySlots": "10",
      "installed": "true",
      "locked": "false",
      "temporary": "false"
    },
        {
      "@ID": "177",
      "name": "Ashley Place, Victoria",
      "latitude": "51.49616092",
      "longitude": "-0.140947636",
      "bikesAvailable": "12",
      "emptySlots": "13",
      "installed": "true",
      "locked": "false",
      "temporary": "false"
    },
        {
      "@ID": "182",
      "name": "Bell Street , Marylebone",
      "latitude": "51.52202903",
      "longitude": "-0.165842551",
      "bikesAvailable": "17",
      "emptySlots": "0",
      "installed": "true",
      "locked": "false",
      "temporary": "false"
    },
        {
      "@ID": "180",
      "name": "North Audley Street, Mayfair",
      "latitude": "51.5129118",
      "longitude": "-0.153645496",
      "bikesAvailable": "0",
      "emptySlots": "17",
      "installed": "true",
      "locked": "false",
      "temporary": "false"
    },
        {
      "@ID": "181",
      "name": "Belgrave Square, Belgravia",
      "latitude": "51.49941247",
      "longitude": "-0.152317537",
      "bikesAvailable": "5",
      "emptySlots": "16",
      "installed": "true",
      "locked": "false",
      "temporary": "false"
    },
        {
      "@ID": "205",
      "name": "New Road  2, Whitechapel",
      "latitude": "51.518144",
      "longitude": "-0.06275",
      "bikesAvailable": "17",
      "emptySlots": "1",
      "installed": "true",
      "locked": "false",
      "temporary": "false"
    },
        {
      "@ID": "204",
      "name": "Margery Street, Clerkenwell",
      "latitude": "51.52659961",
      "longitude": "-0.112432615",
      "bikesAvailable": "9",
      "emptySlots": "10",
      "installed": "true",
      "locked": "false",
      "temporary": "false"
    },
        {
      "@ID": "207",
      "name": "Grosvenor Crescent, Belgravia",
      "latitude": "51.50135267",
      "longitude": "-0.153194766",
      "bikesAvailable": "6",
      "emptySlots": "11",
      "installed": "true",
      "locked": "false",
      "temporary": "false"
    },
        {
      "@ID": "206",
      "name": "New Road 1 , Whitechapel",
      "latitude": "51.518154",
      "longitude": "-0.062697",
      "bikesAvailable": "16",
      "emptySlots": "1",
      "installed": "true",
      "locked": "false",
      "temporary": "false"
    },
        {
      "@ID": "201",
      "name": "Dorset Square, Marylebone",
      "latitude": "51.5225965",
      "longitude": "-0.161113413",
      "bikesAvailable": "15",
      "emptySlots": "0",
      "installed": "true",
      "locked": "false",
      "temporary": "false"
    },
        {
      "@ID": "200",
      "name": "LMU Commercial Road, Whitechapel",
      "latitude": "51.51492456",
      "longitude": "-0.066078037",
      "bikesAvailable": "13",
      "emptySlots": "0",
      "installed": "true",
      "locked": "false",
      "temporary": "false"
    },
        {
      "@ID": "203",
      "name": "West Smithfield Rotunda, Farringdon",
      "latitude": "51.51821864",
      "longitude": "-0.100791005",
      "bikesAvailable": "3",
      "emptySlots": "11",
      "installed": "true",
      "locked": "false",
      "temporary": "false"
    },
        {
      "@ID": "202",
      "name": "Leman Street, Aldgate",
      "latitude": "51.51236389",
      "longitude": "-0.06954201",
      "bikesAvailable": "15",
      "emptySlots": "20",
      "installed": "true",
      "locked": "false",
      "temporary": "false"
    },
        {
      "@ID": "197",
      "name": "Stamford Street, South Bank",
      "latitude": "51.50556905",
      "longitude": "-0.111606696",
      "bikesAvailable": "15",
      "emptySlots": "12",
      "installed": "true",
      "locked": "false",
      "temporary": "false"
    },
        {
      "@ID": "196",
      "name": "Union Street, The Borough",
      "latitude": "51.50368837",
      "longitude": "-0.098497684",
      "bikesAvailable": "6",
      "emptySlots": "11",
      "installed": "true",
      "locked": "false",
      "temporary": "false"
    },
        {
      "@ID": "199",
      "name": "Great Tower Street, Monument",
      "latitude": "51.51048489",
      "longitude": "-0.082989638",
      "bikesAvailable": "0",
      "emptySlots": "23",
      "installed": "true",
      "locked": "false",
      "temporary": "false"
    },
        {
      "@ID": "193",
      "name": "Bankside Mix, Bankside",
      "latitude": "51.50581776",
      "longitude": "-0.100186337",
      "bikesAvailable": "15",
      "emptySlots": "43",
      "installed": "true",
      "locked": "false",
      "temporary": "false"
    },
        {
      "@ID": "192",
      "name": "Wardour Street, Soho",
      "latitude": "51.51251523",
      "longitude": "-0.133201961",
      "bikesAvailable": "10",
      "emptySlots": "5",
      "installed": "true",
      "locked": "false",
      "temporary": "false"
    },
        {
      "@ID": "195",
      "name": "Milroy Walk, South Bank",
      "latitude": "51.50724437",
      "longitude": "-0.106237501",
      "bikesAvailable": "27",
      "emptySlots": "2",
      "installed": "true",
      "locked": "false",
      "temporary": "false"
    },
        {
      "@ID": "194",
      "name": "Hop Exchange, The Borough",
      "latitude": "51.50462759",
      "longitude": "-0.091773776",
      "bikesAvailable": "49",
      "emptySlots": "6",
      "installed": "true",
      "locked": "false",
      "temporary": "false"
    },
        {
      "@ID": "220",
      "name": "Chelsea Green, Chelsea",
      "latitude": "51.49066456",
      "longitude": "-0.166485083",
      "bikesAvailable": "2",
      "emptySlots": "25",
      "installed": "true",
      "locked": "false",
      "temporary": "false"
    },
        {
      "@ID": "221",
      "name": "Horseferry Road, Westminster",
      "latitude": "51.49481649",
      "longitude": "-0.13045856",
      "bikesAvailable": "3",
      "emptySlots": "12",
      "installed": "true",
      "locked": "false",
      "temporary": "false"
    },
        {
      "@ID": "222",
      "name": "Knightsbridge, Hyde Park",
      "latitude": "51.50275704",
      "longitude": "-0.155349725",
      "bikesAvailable": "39",
      "emptySlots": "2",
      "installed": "true",
      "locked": "false",
      "temporary": "false"
    },
        {
      "@ID": "223",
      "name": "Rodney Road , Walworth",
      "latitude": "51.49148474",
      "longitude": "-0.090220911",
      "bikesAvailable": "21",
      "emptySlots": "3",
      "installed": "true",
      "locked": "false",
      "temporary": "false"
    },
        {
      "@ID": "216",
      "name": "Old Brompton Road, South Kensington",
      "latitude": "51.49094565",
      "longitude": "-0.181190899",
      "bikesAvailable": "15",
      "emptySlots": "14",
      "installed": "true",
      "locked": "false",
      "temporary": "false"
    },
        {
      "@ID": "217",
      "name": "Wormwood Street, Liverpool Street",
      "latitude": "51.51615461",
      "longitude": "-0.082422399",
      "bikesAvailable": "4",
      "emptySlots": "12",
      "installed": "true",
      "locked": "false",
      "temporary": "false"
    },
        {
      "@ID": "218",
      "name": "St. Luke's Church, Chelsea",
      "latitude": "51.48971651",
      "longitude": "-0.170194408",
      "bikesAvailable": "10",
      "emptySlots": "10",
      "installed": "true",
      "locked": "false",
      "temporary": "false"
    },
        {
      "@ID": "219",
      "name": "Bramham Gardens, Earl's Court",
      "latitude": "51.49016361",
      "longitude": "-0.19039362",
      "bikesAvailable": "18",
      "emptySlots": "9",
      "installed": "true",
      "locked": "false",
      "temporary": "false"
    },
        {
      "@ID": "212",
      "name": "Campden Hill Road, Notting Hill",
      "latitude": "51.50658458",
      "longitude": "-0.199004026",
      "bikesAvailable": "8",
      "emptySlots": "9",
      "installed": "true",
      "locked": "false",
      "temporary": "false"
    },
        {
      "@ID": "213",
      "name": "Wellington Arch, Hyde Park",
      "latitude": "51.50274025",
      "longitude": "-0.149569201",
      "bikesAvailable": "26",
      "emptySlots": "3",
      "installed": "true",
      "locked": "false",
      "temporary": "false"
    },
        {
      "@ID": "214",
      "name": "Endsleigh Gardens, Euston",
      "latitude": "51.52683806",
      "longitude": "-0.130504336",
      "bikesAvailable": "26",
      "emptySlots": "5",
      "installed": "true",
      "locked": "false",
      "temporary": "false"
    },
        {
      "@ID": "215",
      "name": "Moorfields, Moorgate",
      "latitude": "51.51906932",
      "longitude": "-0.088285377",
      "bikesAvailable": "13",
      "emptySlots": "40",
      "installed": "true",
      "locked": "false",
      "temporary": "false"
    },
        {
      "@ID": "208",
      "name": "Mallory Street, Marylebone",
      "latitude": "51.52505151",
      "longitude": "-0.166304359",
      "bikesAvailable": "4",
      "emptySlots": "15",
      "installed": "true",
      "locked": "false",
      "temporary": "false"
    },
        {
      "@ID": "209",
      "name": "Denyer Street, Knightsbridge",
      "latitude": "51.49358391",
      "longitude": "-0.165101392",
      "bikesAvailable": "22",
      "emptySlots": "7",
      "installed": "true",
      "locked": "false",
      "temporary": "false"
    },
        {
      "@ID": "210",
      "name": "Hinde Street, Marylebone",
      "latitude": "51.51681444",
      "longitude": "-0.151926305",
      "bikesAvailable": "3",
      "emptySlots": "18",
      "installed": "true",
      "locked": "false",
      "temporary": "false"
    },
        {
      "@ID": "211",
      "name": "Cadogan Place, Knightsbridge",
      "latitude": "51.49464523",
      "longitude": "-0.158105512",
      "bikesAvailable": "23",
      "emptySlots": "11",
      "installed": "true",
      "locked": "false",
      "temporary": "false"
    },
        {
      "@ID": "239",
      "name": "Warren Street Station, Euston",
      "latitude": "51.52443845",
      "longitude": "-0.138019439",
      "bikesAvailable": "2",
      "emptySlots": "22",
      "installed": "true",
      "locked": "false",
      "temporary": "false"
    },
        {
      "@ID": "238",
      "name": "Frampton Street, Paddington",
      "latitude": "51.5233534",
      "longitude": "-0.175116099",
      "bikesAvailable": "3",
      "emptySlots": "29",
      "installed": "true",
      "locked": "false",
      "temporary": "false"
    },
        {
      "@ID": "237",
      "name": "Vaughan Way, Wapping",
      "latitude": "51.5084448",
      "longitude": "-0.067176443",
      "bikesAvailable": "25",
      "emptySlots": "13",
      "installed": "true",
      "locked": "false",
      "temporary": "false"
    },
        {
      "@ID": "236",
      "name": "Fashion Street, Whitechapel",
      "latitude": "51.51838043",
      "longitude": "-0.073438925",
      "bikesAvailable": "18",
      "emptySlots": "12",
      "installed": "true",
      "locked": "false",
      "temporary": "false"
    },
        {
      "@ID": "235",
      "name": "Kennington Road  , Vauxhall",
      "latitude": "51.49571828",
      "longitude": "-0.110889274",
      "bikesAvailable": "30",
      "emptySlots": "4",
      "installed": "true",
      "locked": "false",
      "temporary": "false"
    },
        {
      "@ID": "234",
      "name": "Liverpool Road (N1 Centre), Angel",
      "latitude": "51.53450449",
      "longitude": "-0.106992706",
      "bikesAvailable": "17",
      "emptySlots": "7",
      "installed": "true",
      "locked": "false",
      "temporary": "false"
    },
        {
      "@ID": "233",
      "name": "Pall Mall East, West End",
      "latitude": "51.50777049",
      "longitude": "-0.130699733",
      "bikesAvailable": "7",
      "emptySlots": "14",
      "installed": "true",
      "locked": "false",
      "temporary": "false"
    },
        {
      "@ID": "232",
      "name": "Carey Street, Holborn",
      "latitude": "51.51501025",
      "longitude": "-0.112753217",
      "bikesAvailable": "0",
      "emptySlots": "16",
      "installed": "true",
      "locked": "false",
      "temporary": "false"
    },
        {
      "@ID": "231",
      "name": "\n      Queen's Gate (Central), South Kensington\n    ",
      "latitude": "51.49396755",
      "longitude": "-0.17873226",
      "bikesAvailable": "13",
      "emptySlots": "17",
      "installed": "true",
      "locked": "false",
      "temporary": "false"
    },
        {
      "@ID": "230",
      "name": "Poured Lines, Bankside",
      "latitude": "51.50669284",
      "longitude": "-0.103137426",
      "bikesAvailable": "3",
      "emptySlots": "26",
      "installed": "true",
      "locked": "false",
      "temporary": "false"
    },
        {
      "@ID": "229",
      "name": "Whitehall Place, Strand",
      "latitude": "51.50654321",
      "longitude": "-0.123179697",
      "bikesAvailable": "8",
      "emptySlots": "14",
      "installed": "true",
      "locked": "false",
      "temporary": "false"
    },
        {
      "@ID": "228",
      "name": "St. James's Square, St. James's",
      "latitude": "51.50742485",
      "longitude": "-0.134621209",
      "bikesAvailable": "0",
      "emptySlots": "38",
      "installed": "true",
      "locked": "false",
      "temporary": "false"
    },
        {
      "@ID": "227",
      "name": "Great Percy Street, Clerkenwell",
      "latitude": "51.52891573",
      "longitude": "-0.115480888",
      "bikesAvailable": "17",
      "emptySlots": "6",
      "installed": "true",
      "locked": "false",
      "temporary": "false"
    },
        {
      "@ID": "226",
      "name": "Charles II Street, West End",
      "latitude": "51.50844614",
      "longitude": "-0.131961389",
      "bikesAvailable": "10",
      "emptySlots": "13",
      "installed": "true",
      "locked": "false",
      "temporary": "false"
    },
        {
      "@ID": "225",
      "name": "Notting Hill Gate Station, Notting Hill",
      "latitude": "51.50935342",
      "longitude": "-0.196422",
      "bikesAvailable": "7",
      "emptySlots": "22",
      "installed": "true",
      "locked": "false",
      "temporary": "false"
    },
        {
      "@ID": "224",
      "name": "Whiteley's, Bayswater",
      "latitude": "51.51476963",
      "longitude": "-0.188129731",
      "bikesAvailable": "14",
      "emptySlots": "1",
      "installed": "true",
      "locked": "false",
      "temporary": "false"
    },
        {
      "@ID": "254",
      "name": "Chadwell Street, Angel",
      "latitude": "51.53051587",
      "longitude": "-0.106408455",
      "bikesAvailable": "13",
      "emptySlots": "3",
      "installed": "true",
      "locked": "false",
      "temporary": "false"
    },
        {
      "@ID": "255",
      "name": "Clifton Road, Maida Vale",
      "latitude": "51.52557531",
      "longitude": "-0.179592915",
      "bikesAvailable": "15",
      "emptySlots": "7",
      "installed": "true",
      "locked": "false",
      "temporary": "false"
    },
        {
      "@ID": "252",
      "name": "Jubilee Gardens, South Bank",
      "latitude": "51.5046364",
      "longitude": "-0.116542278",
      "bikesAvailable": "26",
      "emptySlots": "2",
      "installed": "true",
      "locked": "false",
      "temporary": "false"
    },
        {
      "@ID": "253",
      "name": "Shoreditch Park, Hoxton",
      "latitude": "51.53404294",
      "longitude": "-0.086379717",
      "bikesAvailable": "30",
      "emptySlots": "0",
      "installed": "true",
      "locked": "false",
      "temporary": "false"
    },
        {
      "@ID": "250",
      "name": "Royal Avenue 1, Chelsea",
      "latitude": "51.489932",
      "longitude": "-0.162727",
      "bikesAvailable": "5",
      "emptySlots": "5",
      "installed": "true",
      "locked": "false",
      "temporary": "false"
    },
        {
      "@ID": "251",
      "name": "Brushfield Street, Liverpool Street",
      "latitude": "51.518908",
      "longitude": "-0.079249",
      "bikesAvailable": "1",
      "emptySlots": "30",
      "installed": "true",
      "locked": "false",
      "temporary": "false"
    },
        {
      "@ID": "248",
      "name": "Triangle Car Park, Hyde Park",
      "latitude": "51.50645179",
      "longitude": "-0.170279555",
      "bikesAvailable": "0",
      "emptySlots": "25",
      "installed": "true",
      "locked": "false",
      "temporary": "false"
    },
        {
      "@ID": "249",
      "name": "Harper Road, Borough",
      "latitude": "51.49859784",
      "longitude": "-0.096191134",
      "bikesAvailable": "28",
      "emptySlots": "14",
      "installed": "true",
      "locked": "false",
      "temporary": "false"
    },
        {
      "@ID": "246",
      "name": "Berry Street, Clerkenwell",
      "latitude": "51.52285301",
      "longitude": "-0.099994052",
      "bikesAvailable": "1",
      "emptySlots": "40",
      "installed": "true",
      "locked": "false",
      "temporary": "false"
    },
        {
      "@ID": "247",
      "name": "\n      St. John's Wood Church, Regent's Park\n    ",
      "latitude": "51.530052",
      "longitude": "-0.168314",
      "bikesAvailable": "20",
      "emptySlots": "30",
      "installed": "true",
      "locked": "false",
      "temporary": "false"
    },
        {
      "@ID": "244",
      "name": "Earnshaw Street , Covent Garden",
      "latitude": "51.51611887",
      "longitude": "-0.128585022",
      "bikesAvailable": "0",
      "emptySlots": "18",
      "installed": "true",
      "locked": "false",
      "temporary": "false"
    },
        {
      "@ID": "245",
      "name": "Grosvenor Road, Pimlico",
      "latitude": "51.4853572",
      "longitude": "-0.142207481",
      "bikesAvailable": "28",
      "emptySlots": "0",
      "installed": "true",
      "locked": "false",
      "temporary": "false"
    },
        {
      "@ID": "242",
      "name": "Beaumont Street, Marylebone",
      "latitude": "51.52200801",
      "longitude": "-0.151359288",
      "bikesAvailable": "12",
      "emptySlots": "11",
      "installed": "true",
      "locked": "false",
      "temporary": "false"
    },
        {
      "@ID": "243",
      "name": "Gloucester Street, Pimlico",
      "latitude": "51.49096258",
      "longitude": "-0.139625122",
      "bikesAvailable": "25",
      "emptySlots": "0",
      "installed": "true",
      "locked": "false",
      "temporary": "false"
    },
        {
      "@ID": "240",
      "name": "Colombo Street, Southwark",
      "latitude": "51.50545935",
      "longitude": "-0.10569204",
      "bikesAvailable": "7",
      "emptySlots": "8",
      "installed": "true",
      "locked": "false",
      "temporary": "false"
    },
        {
      "@ID": "275",
      "name": "Barbican Centre, Barbican",
      "latitude": "51.52004497",
      "longitude": "-0.092176447",
      "bikesAvailable": "7",
      "emptySlots": "11",
      "installed": "true",
      "locked": "false",
      "temporary": "false"
    },
        {
      "@ID": "274",
      "name": "Warwick Road, Olympia",
      "latitude": "51.49671237",
      "longitude": "-0.20528437",
      "bikesAvailable": "9",
      "emptySlots": "25",
      "installed": "true",
      "locked": "false",
      "temporary": "false"
    },
        {
      "@ID": "273",
      "name": "Belvedere Road, South Bank",
      "latitude": "51.50613324",
      "longitude": "-0.114686385",
      "bikesAvailable": "25",
      "emptySlots": "13",
      "installed": "true",
      "locked": "false",
      "temporary": "false"
    },
        {
      "@ID": "272",
      "name": "Baylis Road, Waterloo",
      "latitude": "51.50144456",
      "longitude": "-0.110699309",
      "bikesAvailable": "16",
      "emptySlots": "5",
      "installed": "true",
      "locked": "false",
      "temporary": "false"
    },
        {
      "@ID": "279",
      "name": "North Wharf Road, Paddington",
      "latitude": "51.51862243",
      "longitude": "-0.176645823",
      "bikesAvailable": "12",
      "emptySlots": "12",
      "installed": "true",
      "locked": "false",
      "temporary": "false"
    },
        {
      "@ID": "278",
      "name": "Tooley Street, Bermondsey",
      "latitude": "51.5034938",
      "longitude": "-0.07962099",
      "bikesAvailable": "16",
      "emptySlots": "1",
      "installed": "true",
      "locked": "false",
      "temporary": "false"
    },
        {
      "@ID": "277",
      "name": "Kensington Church Street, Kensington",
      "latitude": "51.50315739",
      "longitude": "-0.191496313",
      "bikesAvailable": "12",
      "emptySlots": "5",
      "installed": "true",
      "locked": "false",
      "temporary": "false"
    },
        {
      "@ID": "276",
      "name": "Lower Thames Street, Monument",
      "latitude": "51.50930161",
      "longitude": "-0.084985356",
      "bikesAvailable": "6",
      "emptySlots": "17",
      "installed": "true",
      "locked": "false",
      "temporary": "false"
    },
        {
      "@ID": "282",
      "name": "Royal London Hospital, Whitechapel",
      "latitude": "51.51906446",
      "longitude": "-0.059642081",
      "bikesAvailable": "32",
      "emptySlots": "4",
      "installed": "true",
      "locked": "false",
      "temporary": "false"
    },
        {
      "@ID": "281",
      "name": "Smith Square, Westminster",
      "latitude": "51.49580589",
      "longitude": "-0.127575233",
      "bikesAvailable": "0",
      "emptySlots": "18",
      "installed": "true",
      "locked": "false",
      "temporary": "false"
    },
        {
      "@ID": "280",
      "name": "Royal Avenue 2, Chelsea",
      "latitude": "51.490083",
      "longitude": "-0.162418",
      "bikesAvailable": "0",
      "emptySlots": "10",
      "installed": "true",
      "locked": "false",
      "temporary": "false"
    },
        {
      "@ID": "287",
      "name": "Bedford Way, Bloomsbury",
      "latitude": "51.52367314",
      "longitude": "-0.128377673",
      "bikesAvailable": "21",
      "emptySlots": "1",
      "installed": "true",
      "locked": "false",
      "temporary": "false"
    },
        {
      "@ID": "286",
      "name": "\n      St. John's Wood Road, St. John's Wood\n    ",
      "latitude": "51.5272947",
      "longitude": "-0.174653609",
      "bikesAvailable": "7",
      "emptySlots": "27",
      "installed": "true",
      "locked": "false",
      "temporary": "false"
    },
        {
      "@ID": "284",
      "name": "Lambeth North Station, Waterloo",
      "latitude": "51.49914063",
      "longitude": "-0.112031483",
      "bikesAvailable": "18",
      "emptySlots": "1",
      "installed": "true",
      "locked": "false",
      "temporary": "false"
    },
        {
      "@ID": "258",
      "name": "Kensington Gore, Knightsbridge",
      "latitude": "51.50143293",
      "longitude": "-0.178656971",
      "bikesAvailable": "0",
      "emptySlots": "23",
      "installed": "true",
      "locked": "false",
      "temporary": "false"
    },
        {
      "@ID": "259",
      "name": "Embankment (Horse Guards), Westminster",
      "latitude": "51.50494561",
      "longitude": "-0.123247648",
      "bikesAvailable": "4",
      "emptySlots": "24",
      "installed": "true",
      "locked": "false",
      "temporary": "false"
    },
        {
      "@ID": "256",
      "name": "Houghton Street, Strand",
      "latitude": "51.51362054",
      "longitude": "-0.116764211",
      "bikesAvailable": "0",
      "emptySlots": "15",
      "installed": "true",
      "locked": "false",
      "temporary": "false"
    },
        {
      "@ID": "257",
      "name": "Westminster University, Marylebone",
      "latitude": "51.52248185",
      "longitude": "-0.154907218",
      "bikesAvailable": "4",
      "emptySlots": "12",
      "installed": "true",
      "locked": "false",
      "temporary": "false"
    },
        {
      "@ID": "262",
      "name": "\n      LSBU (Borough Road), Elephant & Castle\n    ",
      "latitude": "51.49874469",
      "longitude": "-0.103132904",
      "bikesAvailable": "34",
      "emptySlots": "1",
      "installed": "true",
      "locked": "false",
      "temporary": "false"
    },
        {
      "@ID": "263",
      "name": "St. Mary Axe, Aldgate",
      "latitude": "51.51422502",
      "longitude": "-0.080660083",
      "bikesAvailable": "1",
      "emptySlots": "20",
      "installed": "true",
      "locked": "false",
      "temporary": "false"
    },
        {
      "@ID": "260",
      "name": "Broadwick Street, Soho",
      "latitude": "51.5136846",
      "longitude": "-0.135580879",
      "bikesAvailable": "2",
      "emptySlots": "14",
      "installed": "true",
      "locked": "false",
      "temporary": "false"
    },
        {
      "@ID": "261",
      "name": "Princes Square, Bayswater",
      "latitude": "51.5134891",
      "longitude": "-0.191351186",
      "bikesAvailable": "11",
      "emptySlots": "3",
      "installed": "true",
      "locked": "false",
      "temporary": "false"
    },
        {
      "@ID": "266",
      "name": "Queen's Gate (North), Kensington",
      "latitude": "51.50102668",
      "longitude": "-0.180246101",
      "bikesAvailable": "1",
      "emptySlots": "15",
      "installed": "true",
      "locked": "false",
      "temporary": "false"
    },
        {
      "@ID": "267",
      "name": "Regency Street, Westminster",
      "latitude": "51.49206037",
      "longitude": "-0.132224622",
      "bikesAvailable": "15",
      "emptySlots": "7",
      "installed": "true",
      "locked": "false",
      "temporary": "false"
    },
        {
      "@ID": "264",
      "name": "Tysoe Street, Clerkenwell",
      "latitude": "51.52644342",
      "longitude": "-0.109256828",
      "bikesAvailable": "6",
      "emptySlots": "13",
      "installed": "true",
      "locked": "false",
      "temporary": "false"
    },
        {
      "@ID": "265",
      "name": "Southwick Street, Paddington",
      "latitude": "51.51595344",
      "longitude": "-0.169249375",
      "bikesAvailable": "16",
      "emptySlots": "0",
      "installed": "true",
      "locked": "false",
      "temporary": "false"
    },
        {
      "@ID": "270",
      "name": "Kennington Lane Rail Bridge, Vauxhall",
      "latitude": "51.4863434",
      "longitude": "-0.122492418",
      "bikesAvailable": "35",
      "emptySlots": "0",
      "installed": "true",
      "locked": "false",
      "temporary": "false"
    },
        {
      "@ID": "271",
      "name": "London Zoo, Regents Park",
      "latitude": "51.53583617",
      "longitude": "-0.156285395",
      "bikesAvailable": "8",
      "emptySlots": "24",
      "installed": "true",
      "locked": "false",
      "temporary": "false"
    },
        {
      "@ID": "268",
      "name": "Belgrave Road, Victoria",
      "latitude": "51.49320445",
      "longitude": "-0.144132875",
      "bikesAvailable": "12",
      "emptySlots": "17",
      "installed": "true",
      "locked": "false",
      "temporary": "false"
    },
        {
      "@ID": "269",
      "name": "Empire Square, The Borough",
      "latitude": "51.50082346",
      "longitude": "-0.089740764",
      "bikesAvailable": "35",
      "emptySlots": "11",
      "installed": "true",
      "locked": "false",
      "temporary": "false"
    },
        {
      "@ID": "305",
      "name": "Kennington Lane Tesco, Vauxhall",
      "latitude": "51.48677988",
      "longitude": "-0.115853961",
      "bikesAvailable": "15",
      "emptySlots": "0",
      "installed": "true",
      "locked": "false",
      "temporary": "false"
    },
        {
      "@ID": "304",
      "name": "Cumberland Gate, Hyde Park",
      "latitude": "51.51211869",
      "longitude": "-0.16209757",
      "bikesAvailable": "8",
      "emptySlots": "9",
      "installed": "true",
      "locked": "false",
      "temporary": "false"
    },
        {
      "@ID": "307",
      "name": "Black Lion Gate, Kensington Gardens",
      "latitude": "51.50990837",
      "longitude": "-0.187842717",
      "bikesAvailable": "21",
      "emptySlots": "1",
      "installed": "true",
      "locked": "false",
      "temporary": "false"
    },
        {
      "@ID": "306",
      "name": "Rathbone Street, Fitzrovia ",
      "latitude": "51.51816295",
      "longitude": "-0.135025698",
      "bikesAvailable": "0",
      "emptySlots": "15",
      "installed": "true",
      "locked": "false",
      "temporary": "false"
    },
        {
      "@ID": "309",
      "name": "Embankment (Savoy), Strand",
      "latitude": "51.50963123",
      "longitude": "-0.119047563",
      "bikesAvailable": "28",
      "emptySlots": "12",
      "installed": "true",
      "locked": "false",
      "temporary": "false"
    },
        {
      "@ID": "308",
      "name": "Long Lane , Bermondsey",
      "latitude": "51.49907558",
      "longitude": "-0.085666316",
      "bikesAvailable": "18",
      "emptySlots": "2",
      "installed": "true",
      "locked": "false",
      "temporary": "false"
    },
        {
      "@ID": "311",
      "name": "Foley Street, Fitzrovia",
      "latitude": "51.51918144",
      "longitude": "-0.140485596",
      "bikesAvailable": "3",
      "emptySlots": "21",
      "installed": "true",
      "locked": "false",
      "temporary": "false"
    },
        {
      "@ID": "310",
      "name": "Black Prince Road, Vauxhall",
      "latitude": "51.4908679",
      "longitude": "-0.116911864",
      "bikesAvailable": "18",
      "emptySlots": "1",
      "installed": "true",
      "locked": "false",
      "temporary": "false"
    },
        {
      "@ID": "313",
      "name": "Wells Street, Fitzrovia ",
      "latitude": "51.51734403",
      "longitude": "-0.138072691",
      "bikesAvailable": "1",
      "emptySlots": "37",
      "installed": "true",
      "locked": "false",
      "temporary": "false"
    },
        {
      "@ID": "312",
      "name": "Grove End Road, St. John's Wood",
      "latitude": "51.53088935",
      "longitude": "-0.176770502",
      "bikesAvailable": "14",
      "emptySlots": "6",
      "installed": "true",
      "locked": "false",
      "temporary": "false"
    },
        {
      "@ID": "315",
      "name": "The Tennis Courts, Regent's Park",
      "latitude": "51.52536703",
      "longitude": "-0.153463612",
      "bikesAvailable": "0",
      "emptySlots": "13",
      "installed": "true",
      "locked": "false",
      "temporary": "false"
    },
        {
      "@ID": "314",
      "name": "Tyers Gate, Bermondsey",
      "latitude": "51.50088934",
      "longitude": "-0.083159352",
      "bikesAvailable": "26",
      "emptySlots": "10",
      "installed": "true",
      "locked": "false",
      "temporary": "false"
    },
        {
      "@ID": "317",
      "name": "Dickens Square, Borough",
      "latitude": "51.49679128",
      "longitude": "-0.093913472",
      "bikesAvailable": "26",
      "emptySlots": "6",
      "installed": "true",
      "locked": "false",
      "temporary": "false"
    },
        {
      "@ID": "316",
      "name": "Cardinal Place, Victoria",
      "latitude": "51.49768448",
      "longitude": "-0.141943703",
      "bikesAvailable": "19",
      "emptySlots": "5",
      "installed": "true",
      "locked": "false",
      "temporary": "false"
    },
        {
      "@ID": "319",
      "name": "Baldwin Street, St. Luke's",
      "latitude": "51.52702563",
      "longitude": "-0.088542771",
      "bikesAvailable": "2",
      "emptySlots": "19",
      "installed": "true",
      "locked": "false",
      "temporary": "false"
    },
        {
      "@ID": "318",
      "name": "Sackville Street, Mayfair",
      "latitude": "51.51004801",
      "longitude": "-0.138846453",
      "bikesAvailable": "0",
      "emptySlots": "16",
      "installed": "true",
      "locked": "false",
      "temporary": "false"
    },
        {
      "@ID": "288",
      "name": "Elizabeth Bridge, Victoria",
      "latitude": "51.49236962",
      "longitude": "-0.147478734",
      "bikesAvailable": "29",
      "emptySlots": "5",
      "installed": "true",
      "locked": "false",
      "temporary": "false"
    },
        {
      "@ID": "289",
      "name": "South Audley Street, Mayfair",
      "latitude": "51.50923022",
      "longitude": "-0.151296092",
      "bikesAvailable": "1",
      "emptySlots": "14",
      "installed": "true",
      "locked": "false",
      "temporary": "false"
    },
        {
      "@ID": "290",
      "name": "Winsland Street, Paddington",
      "latitude": "51.51678023",
      "longitude": "-0.175488803",
      "bikesAvailable": "12",
      "emptySlots": "1",
      "installed": "true",
      "locked": "false",
      "temporary": "false"
    },
        {
      "@ID": "291",
      "name": "Claverton Street, Pimlico",
      "latitude": "51.48483991",
      "longitude": "-0.138089062",
      "bikesAvailable": "20",
      "emptySlots": "12",
      "installed": "true",
      "locked": "false",
      "temporary": "false"
    },
        {
      "@ID": "292",
      "name": "Montpelier Street, Knightsbridge",
      "latitude": "51.49888404",
      "longitude": "-0.165471605",
      "bikesAvailable": "4",
      "emptySlots": "11",
      "installed": "true",
      "locked": "false",
      "temporary": "false"
    },
        {
      "@ID": "293",
      "name": "Kensington Olympia Station, Olympia",
      "latitude": "51.49815779",
      "longitude": "-0.209494128",
      "bikesAvailable": "10",
      "emptySlots": "14",
      "installed": "true",
      "locked": "false",
      "temporary": "false"
    },
        {
      "@ID": "294",
      "name": "St. George's Square, Pimlico",
      "latitude": "51.488226",
      "longitude": "-0.135635511",
      "bikesAvailable": "15",
      "emptySlots": "1",
      "installed": "true",
      "locked": "false",
      "temporary": "false"
    },
        {
      "@ID": "295",
      "name": "Swan Street, The Borough",
      "latitude": "51.50029631",
      "longitude": "-0.092762704",
      "bikesAvailable": "13",
      "emptySlots": "14",
      "installed": "true",
      "locked": "false",
      "temporary": "false"
    },
        {
      "@ID": "296",
      "name": "Knaresborough Place, Earl's Court",
      "latitude": "51.49363156",
      "longitude": "-0.190603326",
      "bikesAvailable": "9",
      "emptySlots": "9",
      "installed": "true",
      "locked": "false",
      "temporary": "false"
    },
        {
      "@ID": "297",
      "name": "Geraldine Street, Elephant & Castle",
      "latitude": "51.49612799",
      "longitude": "-0.106000855",
      "bikesAvailable": "11",
      "emptySlots": "6",
      "installed": "true",
      "locked": "false",
      "temporary": "false"
    },
        {
      "@ID": "298",
      "name": "Curlew Street, Shad Thames",
      "latitude": "51.50227992",
      "longitude": "-0.074189225",
      "bikesAvailable": "16",
      "emptySlots": "5",
      "installed": "true",
      "locked": "false",
      "temporary": "false"
    },
        {
      "@ID": "299",
      "name": "Vincent Square, Westminster",
      "latitude": "51.49398524",
      "longitude": "-0.136928582",
      "bikesAvailable": "14",
      "emptySlots": "5",
      "installed": "true",
      "locked": "false",
      "temporary": "false"
    },
        {
      "@ID": "300",
      "name": "Serpentine Car Park, Hyde Park",
      "latitude": "51.50501351",
      "longitude": "-0.172729559",
      "bikesAvailable": "0",
      "emptySlots": "15",
      "installed": "true",
      "locked": "false",
      "temporary": "false"
    },
        {
      "@ID": "301",
      "name": "Marylebone Lane, Marylebone",
      "latitude": "51.51475963",
      "longitude": "-0.148105415",
      "bikesAvailable": "3",
      "emptySlots": "20",
      "installed": "true",
      "locked": "false",
      "temporary": "false"
    },
        {
      "@ID": "303",
      "name": "Albert Gate, Hyde Park",
      "latitude": "51.50295379",
      "longitude": "-0.158456089",
      "bikesAvailable": "2",
      "emptySlots": "23",
      "installed": "true",
      "locked": "false",
      "temporary": "false"
    },
        {
      "@ID": "343",
      "name": "London Zoo Car Park, Regent's Park",
      "latitude": "51.53692216",
      "longitude": "-0.150181444",
      "bikesAvailable": "4",
      "emptySlots": "32",
      "installed": "true",
      "locked": "false",
      "temporary": "false"
    },
        {
      "@ID": "341",
      "name": "Craven Street, Strand",
      "latitude": "51.50810309",
      "longitude": "-0.12602103",
      "bikesAvailable": "17",
      "emptySlots": "5",
      "installed": "true",
      "locked": "false",
      "temporary": "false"
    },
        {
      "@ID": "340",
      "name": "Bank of England Museum, Bank",
      "latitude": "51.51444134",
      "longitude": "-0.087587447",
      "bikesAvailable": "0",
      "emptySlots": "13",
      "installed": "true",
      "locked": "false",
      "temporary": "false"
    },
        {
      "@ID": "339",
      "name": "Risinghill Street, Angel",
      "latitude": "51.5333196",
      "longitude": "-0.111781191",
      "bikesAvailable": "10",
      "emptySlots": "14",
      "installed": "true",
      "locked": "false",
      "temporary": "false"
    },
        {
      "@ID": "338",
      "name": "Wellington Street , Strand",
      "latitude": "51.51175646",
      "longitude": "-0.119643424",
      "bikesAvailable": "0",
      "emptySlots": "14",
      "installed": "true",
      "locked": "false",
      "temporary": "false"
    },
        {
      "@ID": "337",
      "name": "Pembridge Villas, Notting Hill",
      "latitude": "51.51108452",
      "longitude": "-0.197524944",
      "bikesAvailable": "5",
      "emptySlots": "11",
      "installed": "true",
      "locked": "false",
      "temporary": "false"
    },
        {
      "@ID": "336",
      "name": "Concert Hall Approach 2, South Bank",
      "latitude": "51.504942",
      "longitude": "-0.115533",
      "bikesAvailable": "14",
      "emptySlots": "4",
      "installed": "true",
      "locked": "false",
      "temporary": "false"
    },
        {
      "@ID": "351",
      "name": "Macclesfield Rd, St Lukes",
      "latitude": "51.529423",
      "longitude": "-0.097122",
      "bikesAvailable": "9",
      "emptySlots": "19",
      "installed": "true",
      "locked": "false",
      "temporary": "false"
    },
        {
      "@ID": "350",
      "name": "Queen's Gate, Kensington Gardens",
      "latitude": "51.5017154373867",
      "longitude": "-0.1798541843891",
      "bikesAvailable": "5",
      "emptySlots": "14",
      "installed": "true",
      "locked": "false",
      "temporary": "false"
    },
        {
      "@ID": "349",
      "name": "St. George Street, Mayfair",
      "latitude": "51.51196",
      "longitude": "-0.142783033",
      "bikesAvailable": "0",
      "emptySlots": "18",
      "installed": "true",
      "locked": "false",
      "temporary": "false"
    },
        {
      "@ID": "348",
      "name": "Grosvenor Square, Mayfair",
      "latitude": "51.51217033",
      "longitude": "-0.150481272",
      "bikesAvailable": "0",
      "emptySlots": "17",
      "installed": "true",
      "locked": "false",
      "temporary": "false"
    },
        {
      "@ID": "347",
      "name": "Lower Marsh, Waterloo",
      "latitude": "51.50013942",
      "longitude": "-0.113936001",
      "bikesAvailable": "12",
      "emptySlots": "2",
      "installed": "true",
      "locked": "false",
      "temporary": "false"
    },
        {
      "@ID": "345",
      "name": "Flood Street, Chelsea",
      "latitude": "51.48802358",
      "longitude": "-0.166878535",
      "bikesAvailable": "4",
      "emptySlots": "11",
      "installed": "true",
      "locked": "false",
      "temporary": "false"
    },
        {
      "@ID": "344",
      "name": "Goswell Road (City Uni), Finsbury",
      "latitude": "51.528246",
      "longitude": "-0.10102611",
      "bikesAvailable": "17",
      "emptySlots": "0",
      "installed": "true",
      "locked": "false",
      "temporary": "false"
    },
        {
      "@ID": "326",
      "name": "Graham Street, Angel",
      "latitude": "51.53266186",
      "longitude": "-0.099981142",
      "bikesAvailable": "26",
      "emptySlots": "0",
      "installed": "true",
      "locked": "false",
      "temporary": "false"
    },
        {
      "@ID": "327",
      "name": "New North Road 1, Hoxton",
      "latitude": "51.53114",
      "longitude": "-0.086016",
      "bikesAvailable": "22",
      "emptySlots": "0",
      "installed": "true",
      "locked": "false",
      "temporary": "false"
    },
        {
      "@ID": "324",
      "name": "Ontario Street, Elephant & Castle",
      "latitude": "51.49652013",
      "longitude": "-0.101384068",
      "bikesAvailable": "12",
      "emptySlots": "3",
      "installed": "true",
      "locked": "false",
      "temporary": "false"
    },
        {
      "@ID": "325",
      "name": "St. Martin's Street, West End",
      "latitude": "51.50908747",
      "longitude": "-0.129697889",
      "bikesAvailable": "13",
      "emptySlots": "4",
      "installed": "true",
      "locked": "false",
      "temporary": "false"
    },
        {
      "@ID": "322",
      "name": "Palissy Street, Shoreditch",
      "latitude": "51.526293",
      "longitude": "-0.073955",
      "bikesAvailable": "8",
      "emptySlots": "18",
      "installed": "true",
      "locked": "false",
      "temporary": "false"
    },
        {
      "@ID": "320",
      "name": "Queen Mother Sports Centre, Victoria",
      "latitude": "51.49357351",
      "longitude": "-0.139956043",
      "bikesAvailable": "15",
      "emptySlots": "8",
      "installed": "true",
      "locked": "false",
      "temporary": "false"
    },
        {
      "@ID": "321",
      "name": "Bermondsey Street, Bermondsey",
      "latitude": "51.49785559",
      "longitude": "-0.081608045",
      "bikesAvailable": "23",
      "emptySlots": "1",
      "installed": "true",
      "locked": "false",
      "temporary": "false"
    },
        {
      "@ID": "334",
      "name": "Concert Hall Approach 1, South Bank",
      "latitude": "51.505044",
      "longitude": "-0.115851",
      "bikesAvailable": "3",
      "emptySlots": "7",
      "installed": "true",
      "locked": "false",
      "temporary": "false"
    },
        {
      "@ID": "335",
      "name": "Tavistock Street, Covent Garden",
      "latitude": "51.51196803",
      "longitude": "-0.120718759",
      "bikesAvailable": "0",
      "emptySlots": "33",
      "installed": "true",
      "locked": "false",
      "temporary": "false"
    },
        {
      "@ID": "332",
      "name": "Nevern Place, Earl's Court",
      "latitude": "51.49334336",
      "longitude": "-0.194757949",
      "bikesAvailable": "11",
      "emptySlots": "9",
      "installed": "true",
      "locked": "false",
      "temporary": "false"
    },
        {
      "@ID": "333",
      "name": "Palace Gardens Terrace, Notting Hill",
      "latitude": "51.50860544",
      "longitude": "-0.193764092",
      "bikesAvailable": "35",
      "emptySlots": "2",
      "installed": "true",
      "locked": "false",
      "temporary": "false"
    },
        {
      "@ID": "330",
      "name": "Eastbourne Mews, Paddington",
      "latitude": "51.51641749",
      "longitude": "-0.179135079",
      "bikesAvailable": "8",
      "emptySlots": "25",
      "installed": "true",
      "locked": "false",
      "temporary": "false"
    },
        {
      "@ID": "331",
      "name": "Bunhill Row, Moorgate",
      "latitude": "51.52085887",
      "longitude": "-0.089887855",
      "bikesAvailable": "6",
      "emptySlots": "24",
      "installed": "true",
      "locked": "false",
      "temporary": "false"
    },
        {
      "@ID": "328",
      "name": "New North Road 2, Hoxton",
      "latitude": "51.53095",
      "longitude": "-0.085603",
      "bikesAvailable": "20",
      "emptySlots": "1",
      "installed": "true",
      "locked": "false",
      "temporary": "false"
    },
        {
      "@ID": "329",
      "name": "Prince Albert Road, Regent's Park",
      "latitude": "51.53589283",
      "longitude": "-0.160854428",
      "bikesAvailable": "19",
      "emptySlots": "4",
      "installed": "true",
      "locked": "false",
      "temporary": "false"
    },
        {
      "@ID": "373",
      "name": "Prince Consort Road, Knightsbridge",
      "latitude": "51.49980661",
      "longitude": "-0.176415994",
      "bikesAvailable": "0",
      "emptySlots": "18",
      "installed": "true",
      "locked": "false",
      "temporary": "false"
    },
        {
      "@ID": "372",
      "name": "Sardinia Street, Holborn",
      "latitude": "51.515208",
      "longitude": "-0.117863",
      "bikesAvailable": "0",
      "emptySlots": "21",
      "installed": "true",
      "locked": "false",
      "temporary": "false"
    },
        {
      "@ID": "375",
      "name": "Kensington Town Hall, Kensington",
      "latitude": "51.50194596",
      "longitude": "-0.194392952",
      "bikesAvailable": "16",
      "emptySlots": "2",
      "installed": "true",
      "locked": "false",
      "temporary": "false"
    },
        {
      "@ID": "374",
      "name": "Waterloo Station 1, Waterloo",
      "latitude": "51.50402793",
      "longitude": "-0.11386435",
      "bikesAvailable": "29",
      "emptySlots": "1",
      "installed": "true",
      "locked": "false",
      "temporary": "false"
    },
        {
      "@ID": "368",
      "name": "Harriet Street, Knightsbridge",
      "latitude": "51.50024195",
      "longitude": "-0.15934065",
      "bikesAvailable": "15",
      "emptySlots": "10",
      "installed": "true",
      "locked": "false",
      "temporary": "false"
    },
        {
      "@ID": "371",
      "name": "King Edward Walk, Waterloo",
      "latitude": "51.49775",
      "longitude": "-0.10988",
      "bikesAvailable": "16",
      "emptySlots": "6",
      "installed": "true",
      "locked": "false",
      "temporary": "false"
    },
        {
      "@ID": "370",
      "name": "Paddington Green, Paddington",
      "latitude": "51.520205",
      "longitude": "-0.174593",
      "bikesAvailable": "6",
      "emptySlots": "13",
      "installed": "true",
      "locked": "false",
      "temporary": "false"
    },
        {
      "@ID": "381",
      "name": "Charlotte Street, Fitzrovia",
      "latitude": "51.51953043",
      "longitude": "-0.13577731",
      "bikesAvailable": "2",
      "emptySlots": "12",
      "installed": "true",
      "locked": "false",
      "temporary": "false"
    },
        {
      "@ID": "380",
      "name": "Stanhope Gate, Mayfair",
      "latitude": "51.50686435",
      "longitude": "-0.150666888",
      "bikesAvailable": "0",
      "emptySlots": "20",
      "installed": "true",
      "locked": "false",
      "temporary": "false"
    },
        {
      "@ID": "383",
      "name": "Frith Street, Soho",
      "latitude": "51.51310333",
      "longitude": "-0.13121385",
      "bikesAvailable": "7",
      "emptySlots": "10",
      "installed": "true",
      "locked": "false",
      "temporary": "false"
    },
        {
      "@ID": "382",
      "name": "Farm Street, Mayfair",
      "latitude": "51.50935171",
      "longitude": "-0.14744969",
      "bikesAvailable": "0",
      "emptySlots": "15",
      "installed": "true",
      "locked": "false",
      "temporary": "false"
    },
        {
      "@ID": "377",
      "name": "Waterloo Bridge, South Bank",
      "latitude": "51.50535447",
      "longitude": "-0.113656543",
      "bikesAvailable": "13",
      "emptySlots": "2",
      "installed": "true",
      "locked": "false",
      "temporary": "false"
    },
        {
      "@ID": "376",
      "name": "Millbank House, Pimlico",
      "latitude": "51.49188409",
      "longitude": "-0.125674815",
      "bikesAvailable": "0",
      "emptySlots": "24",
      "installed": "true",
      "locked": "false",
      "temporary": "false"
    },
        {
      "@ID": "379",
      "name": "Turquoise Island, Notting Hill",
      "latitude": "51.51431171",
      "longitude": "-0.200838199",
      "bikesAvailable": "7",
      "emptySlots": "14",
      "installed": "true",
      "locked": "false",
      "temporary": "false"
    },
        {
      "@ID": "378",
      "name": "Natural History Museum, South Kensington",
      "latitude": "51.49559291",
      "longitude": "-0.179077626",
      "bikesAvailable": "0",
      "emptySlots": "42",
      "installed": "true",
      "locked": "false",
      "temporary": "false"
    },